info_latitude,info_longitude,info_address,info_city,info_state,info_zip,info_country,info_notes,info_lastName,info_maidenName,info_firstName,info_middleName,info_intern,info_resident,info_fellow,info_fellowshipSection,info_honoraryFellow,info_formerFaculty,info_facultySection,info_residencyBegin,info_residencyEnd,info_fellowshipBegin,info_fellowshipEnd,info_institution,info_position,info_count,info_resDate,info_felDate,info_date,info_status
43.076085,-89.4290999,600 Highland Ave,Madison,WI,53792,,,Battino,,Gillian,,,,,Breast Imaging,,,,,,,,,,1,1900,1900,2007,f
32.7847508,-79.9485826,96 Jonathan Lucas St. ,Charleston,SC,29425,,,Chaudry,,M. Imran,,,,f,Neuro,,,,7/1/2006,9/30/2007,,,,,1,2007,1900,2007,f
42.6533127,-73.7761307,47 New Scotland Ave,Albany,NY,12208,,,Cousins,,Joseph,,,,f,Neuro,,,,7/1/2006,6/30/2007,,,Advanced Diagnostic Imaging,Private Practice,1,2007,1900,2007,f
32.75,-97.1160431,800 W Randol Mill Rd,Arlington,TX,76012,,,Huff,,Joshua,,,,f,MR,,,,7/1/2006,6/30/2007,,,,,1,2007,1900,2007,f
43.0087837,-89.4010319,5241 Teaberry Lane,Madison,WI,53711,,,Meiners,,Ryan,,,,f,Abdominal,,,,7/1/2006,6/30/2007,,,,,1,2007,1900,2007,f
38.565464,-89.9619522,1900 Cedarwood Trail,Belleville,IL,62226,,,Schroeder,,Paul,,,,f,,,,,,,,,,,1,1900,1900,2007,f
43.0126343,-89.4366226,2894 Brian Lane,Fitchburg,WI,53711,,,Shadid,,Anthony,,,,f,Abdominal,,,,7/1/2006,6/30/2007,,,,,1,2007,1900,2007,f
30.5306156,-97.6890886,2120 N Mays St ,Round Rock,TX,78664,,,Williams,,John,G,,,f,Abdominal,,,,7/1/2006,6/30/2007,,,Austin Radiological Association,Diagnostic Radiologist,1,2007,1900,2007,f
