info_latitude,info_longitude,info_address,info_city,info_state,info_zip,info_country,info_notes,info_lastName,info_maidenName,info_firstName,info_middleName,info_intern,info_resident,info_fellow,info_fellowshipSection,info_honoraryFellow,info_formerFaculty,info_facultySection,info_residencyBegin,info_residencyEnd,info_fellowshipBegin,info_fellowshipEnd,info_institution,info_position,info_count,info_resDate,info_felDate,info_date,info_status
44.8911855,-89.5815848,3301 CRANBERRY BLVD,Weston,WI,54476,,,Currie,,Jonathan,W,,r,f,Musculoskeletal Imaging and Intervention,,,,7/1/2007,6/30/2011,7/1/2011,6/30/2012,Ministry Medical Group,,1,2011,2012,2012,rf
43.5564264,-89.4680724,2187 New Pinery Rd,Portage,WI,53901,,"cannot locate, NPI not updated since 2012, no forwarding info in TERMED",Hain,,Kendra,,,r,f,Musculoskeletal Imaging and Intervention,,,,6/24/2006,6/30/2011,7/1/2011,6/30/2012,Portage Radiology,"Private Practice, General Radiology",1,2011,2012,2012,rf
44.4722366,-88.0866928,2941 South Ridge Rd,Green Bay,WI,54304,,,Hanson,,Meghan,,,r,f,Abdominal Imaging,,,,6/24/2006,6/30/2011,7/1/2011,6/30/2012,Green Bay Radiology,General Radiology,1,2011,2012,2012,rf
47.6519051,-117.4232941,800 W. 5th Ave,Spokane,WA,99204,,,McEvoy,,Jennifer,,,r,f,Musculoskeletal Imaging and Intervention,,,,7/1/2007,6/30/2011,7/1/2011,6/30/2012,"Deaconess Hospital, Rockwood Health System",Diagnostic Radiology,1,2011,2012,2012,rf
35.1737518,-106.5914459,4801 Lang Ave NE,Albuquerque,NM,87109,,,Webb,,Heather,,,r,f,Abdominal Imaging,,,,7/1/2007,6/30/2011,8/18/2011,6/30/2012,Zia Diagnostic Imaging,Radiologist,1,2011,2012,2012,rf
