info_latitude,info_longitude,info_address,info_city,info_state,info_zip,info_country,info_notes,info_lastName,info_maidenName,info_firstName,info_middleName,info_intern,info_resident,info_fellow,info_fellowshipSection,info_honoraryFellow,info_formerFaculty,info_facultySection,info_residencyBegin,info_residencyEnd,info_fellowshipBegin,info_fellowshipEnd,info_institution,info_position,info_count,info_resDate,info_felDate,info_date,info_status
41.5751762,-90.4501801,5252 School House Road,Bettendorff,IA,52722,,,Durick,,Nathan,,,r,f,Abdominal Imaging,,,,7/1/2003,6/30/2007,7/1/2007,6/30/2008,,,1,2007,2008,2008,rf
44.9380913,-93.30056,3547 Humboldt Ave S,Minneapolis,MN,55408,,,Lee,,Andrew,,,r,f,Abdominal Imaging,,,,6/24/2002,6/30/2007,7/1/2007,6/30/2008,,,1,2007,2008,2008,rf
43.0573044,-89.4657898,476 Rushmore Lane,Madison,WI,53711,,,Lum,,Darren,,,r,f,"MR, Cardiovascular Imaging",,,,7/1/2003,6/30/2008,,,,,1,2008,1900,2008,rf
43.797958,-91.100402,N2101 Brecken Ridge,LaCrosse,WI,54601,,,Riherd,,Jody,,,r,f,Abdominal,,,,7/1/2004,6/30/2008,,,Gundersen-Lutheran Hopital,,1,2008,1900,2008,rf
44.9345512,-93.3377762,4525 Park Commons Drive,St. Louis Park,MN,55416,,,Schumacher,,Clark,,,r,f,"DVI, Interventional Radiology",,,,7/1/2003,6/30/2007,7/1/2007,6/30/2008,,,1,2007,2008,2008,rf
44.2867737,-88.4078598,201 W Northland Ave,Appleton,WI,54911,,,Ziegert,,Andrew,,,r,f,Musculoskeletal Imaging and Intervention,,,,6/24/2002,6/30/2007,7/1/2007,6/30/2008,Center for Diagnostic Imaging in Wisconsin,Musculoskeletal Radiologist,1,2007,2008,2008,rf
